{
  "type": "FeatureCollection",
  "features": [
    {
      "type": "Feature",
      "properties": {
        "name": "Scotty Convience Store",
        "hours": "7:00AM - 7:00PM",
        "phone": "(xxx) xxx-xxxx",
        "description": "Student Convience Store(HUB)"
      },
      "geometry": {
        "type": "Point",
        "coordinates": [
          -117.328658,
          33.974574
        ]
      }
    },
    {
      "type": "Feature",
      "properties": {
        "name": "Scotty Convience Store",
        "hours": "8:00AM - 5:00PM",
        "phone": "(951) 827-3701",
        "description": "Student Convience Store(SoM)"
      },
      "geometry": {
        "type": "Point",
        "coordinates": [
          -117.324524,
          33.973718
        ]
      }
    },
    {
      "type": "Feature",
      "properties": {
        "name": "Scotty Convience Store",
        "hours": "10:00AM - 2:00AM",
        "phone": "(951) 827-3701",
        "description": "Student Convience Store(Glen Mor)"
      },
      "geometry": {
        "type": "Point",
        "coordinates": [
          -117.320572,
          33.977864
        ]
      }
     },
     {
       "type": "Feature",
       "properties": {
         "name": "Scotty Convience Store",
         "hours": "4:30AM - 2:00AM",
         "phone": "(951) 827-3701",
         "description": "Student Convience Store(Lothian)"
       },
       "geometry": {
         "type": "Point",
         "coordinates": [
           -117.322792,
           33.975591
         ]
       }
     },
     {
       "type": "Feature",
       "properties": {
         "name": "Scotty Convience Store",
         "hours": "11:00AM - 2:00AM",
         "phone": "(951) 827-3701",
         "description": "Student Convience Store(AI)"
       },
       "geometry": {
         "type": "Point",
         "coordinates": [
           -117.326043,
           33.978137
         ]
       }
      }

  ]
}